{
"type": "FeatureCollection",
"crs": { "type": "name", "properties": { "name": "urn:ogc:def:crs:OGC:1.3:CRS84" } },
                                                                                
"features": [
{ "type": "Feature", "properties": { "SCALERANK": 8, "LABELRANK": 5, "NAME": "Mykolayiv" }, "geometry": { "type": "Point", "coordinates": [ 31.984341999038918, 46.967739073772123 ] } },
{ "type": "Feature", "properties": { "SCALERANK": 8, "LABELRANK": 5, "NAME": "Chernihiv" }, "geometry": { "type": "Point", "coordinates": [ 31.301541299166331, 51.504929828998513 ] } },
{ "type": "Feature", "properties": { "SCALERANK": 8, "LABELRANK": 5, "NAME": "Uman" }, "geometry": { "type": "Point", "coordinates": [ 30.210910195646363, 48.754296690966555 ] } },
{ "type": "Feature", "properties": { "SCALERANK": 8, "LABELRANK": 5, "NAME": "Brovary" }, "geometry": { "type": "Point", "coordinates": [ 30.780901243825667, 50.494319680882541 ] } },
{ "type": "Feature", "properties": { "SCALERANK": 8, "LABELRANK": 5, "NAME": "Bila Tserkva" }, "geometry": { "type": "Point", "coordinates": [ 30.130915078458543, 49.774311949759863 ] } },
{ "type": "Feature", "properties": { "SCALERANK": 8, "LABELRANK": 5, "NAME": "Illichivsk" }, "geometry": { "type": "Point", "coordinates": [ 30.666592975596075, 46.300002053912635 ] } },
{ "type": "Feature", "properties": { "SCALERANK": 8, "LABELRANK": 5, "NAME": "Konotop" }, "geometry": { "type": "Point", "coordinates": [ 33.209021767924014, 51.242387714739607 ] } },
{ "type": "Feature", "properties": { "SCALERANK": 8, "LABELRANK": 5, "NAME": "Kryvyy Rih" }, "geometry": { "type": "Point", "coordinates": [ 33.344982461283962, 47.928326435429483 ] } },
{ "type": "Feature", "properties": { "SCALERANK": 8, "LABELRANK": 5, "NAME": "Makiyivka" }, "geometry": { "type": "Point", "coordinates": [ 37.974622353880534, 48.029663919153904 ] } },
{ "type": "Feature", "properties": { "SCALERANK": 8, "LABELRANK": 5, "NAME": "Horlivka" }, "geometry": { "type": "Point", "coordinates": [ 38.054669147500704, 48.299647439662806 ] } },
{ "type": "Feature", "properties": { "SCALERANK": 8, "LABELRANK": 5, "NAME": "Kramatorsk" }, "geometry": { "type": "Point", "coordinates": [ 37.534390827186144, 48.719363422737331 ] } },
{ "type": "Feature", "properties": { "SCALERANK": 8, "LABELRANK": 5, "NAME": "Berdyansk" }, "geometry": { "type": "Point", "coordinates": [ 36.786839557651774, 46.756821715372723 ] } },
{ "type": "Feature", "properties": { "SCALERANK": 8, "LABELRANK": 2, "NAME": "Maykop" }, "geometry": { "type": "Point", "coordinates": [ 40.120021116910038, 44.609976012239144 ] } },
{ "type": "Feature", "properties": { "SCALERANK": 8, "LABELRANK": 2, "NAME": "Georgievsk" }, "geometry": { "type": "Point", "coordinates": [ 43.469945840230594, 44.159900125193133 ] } },
{ "type": "Feature", "properties": { "SCALERANK": 8, "LABELRANK": 2, "NAME": "Pyatigorsk" }, "geometry": { "type": "Point", "coordinates": [ 43.090020710020781, 44.079956684437548 ] } },
{ "type": "Feature", "properties": { "SCALERANK": 8, "LABELRANK": 2, "NAME": "Kislovodsk" }, "geometry": { "type": "Point", "coordinates": [ 42.720017454810943, 43.909967060413408 ] } },
{ "type": "Feature", "properties": { "SCALERANK": 8, "LABELRANK": 2, "NAME": "Nevinnomyssk" }, "geometry": { "type": "Point", "coordinates": [ 41.950038613662173, 44.620052916536054 ] } },
{ "type": "Feature", "properties": { "SCALERANK": 8, "LABELRANK": 2, "NAME": "Novozybkov" }, "geometry": { "type": "Point", "coordinates": [ 31.944861204767903, 52.53481528635939 ] } },
{ "type": "Feature", "properties": { "SCALERANK": 8, "LABELRANK": 2, "NAME": "Yelets" }, "geometry": { "type": "Point", "coordinates": [ 38.50001664099193, 52.580006326398575 ] } },
{ "type": "Feature", "properties": { "SCALERANK": 8, "LABELRANK": 2, "NAME": "Bataysk" }, "geometry": { "type": "Point", "coordinates": [ 39.744850218470958, 47.136824360231117 ] } },
{ "type": "Feature", "properties": { "SCALERANK": 8, "LABELRANK": 2, "NAME": "Taganrog" }, "geometry": { "type": "Point", "coordinates": [ 38.919991006228031, 47.229996967653335 ] } },
{ "type": "Feature", "properties": { "SCALERANK": 8, "LABELRANK": 2, "NAME": "Novocherkassk" }, "geometry": { "type": "Point", "coordinates": [ 40.080023558315986, 47.419959532758241 ] } },
{ "type": "Feature", "properties": { "SCALERANK": 8, "LABELRANK": 2, "NAME": "Kamensk Shakhtinskiy" }, "geometry": { "type": "Point", "coordinates": [ 40.2517960192543, 48.331764342332235 ] } },
{ "type": "Feature", "properties": { "SCALERANK": 8, "LABELRANK": 2, "NAME": "Novoshakhtinsk" }, "geometry": { "type": "Point", "coordinates": [ 39.919981647508166, 47.769989846887313 ] } },
{ "type": "Feature", "properties": { "SCALERANK": 8, "LABELRANK": 2, "NAME": "Shebekino" }, "geometry": { "type": "Point", "coordinates": [ 36.89437821325123, 50.414350401910724 ] } },
{ "type": "Feature", "properties": { "SCALERANK": 8, "LABELRANK": 2, "NAME": "Gubkin" }, "geometry": { "type": "Point", "coordinates": [ 37.384322467810534, 51.274349588112273 ] } },
{ "type": "Feature", "properties": { "SCALERANK": 8, "LABELRANK": 2, "NAME": "Apsheronsk" }, "geometry": { "type": "Point", "coordinates": [ 39.728727171595949, 44.468718484569365 ] } },
{ "type": "Feature", "properties": { "SCALERANK": 8, "LABELRANK": 2, "NAME": "Kropotkin" }, "geometry": { "type": "Point", "coordinates": [ 40.582111774463954, 45.447082538935319 ] } },
{ "type": "Feature", "properties": { "SCALERANK": 8, "LABELRANK": 2, "NAME": "Kirsanov" }, "geometry": { "type": "Point", "coordinates": [ 42.717433633196492, 52.657391783755713 ] } },
{ "type": "Feature", "properties": { "SCALERANK": 8, "LABELRANK": 2, "NAME": "Michurinsk" }, "geometry": { "type": "Point", "coordinates": [ 40.49999792355203, 52.899986795149914 ] } },
{ "type": "Feature", "properties": { "SCALERANK": 8, "LABELRANK": 2, "NAME": "Borisoglebsk" }, "geometry": { "type": "Point", "coordinates": [ 42.088738157933506, 51.368710753477217 ] } },
{ "type": "Feature", "properties": { "SCALERANK": 7, "LABELRANK": 5, "NAME": "Dzhankoy" }, "geometry": { "type": "Point", "coordinates": [ 34.400008502954847, 45.71704022122799 ] } },
{ "type": "Feature", "properties": { "SCALERANK": 7, "LABELRANK": 5, "NAME": "Yevpatoriya" }, "geometry": { "type": "Point", "coordinates": [ 33.363069212585913, 45.196891091994019 ] } },
{ "type": "Feature", "properties": { "SCALERANK": 7, "LABELRANK": 5, "NAME": "Kerch" }, "geometry": { "type": "Point", "coordinates": [ 36.488098102572508, 45.368508523635398 ] } },
{ "type": "Feature", "properties": { "SCALERANK": 7, "LABELRANK": 5, "NAME": "Simferopol" }, "geometry": { "type": "Point", "coordinates": [ 34.098734902693138, 44.949154275586807 ] } },
{ "type": "Feature", "properties": { "SCALERANK": 7, "LABELRANK": 5, "NAME": "Kherson" }, "geometry": { "type": "Point", "coordinates": [ 32.600664887186895, 46.63253717979012 ] } },
{ "type": "Feature", "properties": { "SCALERANK": 7, "LABELRANK": 5, "NAME": "Voznesensk" }, "geometry": { "type": "Point", "coordinates": [ 31.333322305025831, 47.550365009646839 ] } },
{ "type": "Feature", "properties": { "SCALERANK": 7, "LABELRANK": 5, "NAME": "Nizhyn" }, "geometry": { "type": "Point", "coordinates": [ 31.890290892267615, 51.054078795468115 ] } },
{ "type": "Feature", "properties": { "SCALERANK": 7, "LABELRANK": 5, "NAME": "Cherkasy" }, "geometry": { "type": "Point", "coordinates": [ 32.07090002312782, 49.434720274953861 ] } },
{ "type": "Feature", "properties": { "SCALERANK": 7, "LABELRANK": 5, "NAME": "Kirovohrad" }, "geometry": { "type": "Point", "coordinates": [ 32.260294147477452, 48.504053567593303 ] } },
{ "type": "Feature", "properties": { "SCALERANK": 7, "LABELRANK": 5, "NAME": "Shostka" }, "geometry": { "type": "Point", "coordinates": [ 33.479651243836543, 51.873408629455696 ] } },
{ "type": "Feature", "properties": { "SCALERANK": 7, "LABELRANK": 5, "NAME": "Nikopol" }, "geometry": { "type": "Point", "coordinates": [ 34.406209674829825, 47.566591409386433 ] } },
{ "type": "Feature", "properties": { "SCALERANK": 7, "LABELRANK": 5, "NAME": "Kupyansk" }, "geometry": { "type": "Point", "coordinates": [ 37.598056191769558, 49.721782856335153 ] } },
{ "type": "Feature", "properties": { "SCALERANK": 7, "LABELRANK": 5, "NAME": "Lysychansk" }, "geometry": { "type": "Point", "coordinates": [ 38.42735957718952, 48.920410582568991 ] } },
{ "type": "Feature", "properties": { "SCALERANK": 7, "LABELRANK": 5, "NAME": "Luhansk" }, "geometry": { "type": "Point", "coordinates": [ 39.33438431677655, 48.569760151252467 ] } },
{ "type": "Feature", "properties": { "SCALERANK": 7, "LABELRANK": 5, "NAME": "Poltava" }, "geometry": { "type": "Point", "coordinates": [ 34.57028234735651, 49.574039936412646 ] } },
{ "type": "Feature", "properties": { "SCALERANK": 7, "LABELRANK": 5, "NAME": "Kremenchuk" }, "geometry": { "type": "Point", "coordinates": [ 33.42962845737793, 49.083527241098238 ] } },
{ "type": "Feature", "properties": { "SCALERANK": 7, "LABELRANK": 5, "NAME": "Melitopol" }, "geometry": { "type": "Point", "coordinates": [ 35.377468219755599, 46.837824522990275 ] } },
{ "type": "Feature", "properties": { "SCALERANK": 7, "LABELRANK": 8, "NAME": "Tiraspol" }, "geometry": { "type": "Point", "coordinates": [ 29.639988971685682, 46.853094908732487 ] } },
{ "type": "Feature", "properties": { "SCALERANK": 7, "LABELRANK": 2, "NAME": "Cherkessk" }, "geometry": { "type": "Point", "coordinates": [ 42.060006061579088, 44.290408954946258 ] } },
{ "type": "Feature", "properties": { "SCALERANK": 7, "LABELRANK": 2, "NAME": "Blagodarnyy" }, "geometry": { "type": "Point", "coordinates": [ 43.43439245481386, 45.104726175001531 ] } },
{ "type": "Feature", "properties": { "SCALERANK": 7, "LABELRANK": 2, "NAME": "Zelenokumsk" }, "geometry": { "type": "Point", "coordinates": [ 43.878706419659352, 44.40910971992065 ] } },
{ "type": "Feature", "properties": { "SCALERANK": 7, "LABELRANK": 2, "NAME": "Klintsy" }, "geometry": { "type": "Point", "coordinates": [ 32.244842894222302, 52.765240497948923 ] } },
{ "type": "Feature", "properties": { "SCALERANK": 7, "LABELRANK": 2, "NAME": "Lgov" }, "geometry": { "type": "Point", "coordinates": [ 35.274373737333349, 51.69476320302266 ] } },
{ "type": "Feature", "properties": { "SCALERANK": 7, "LABELRANK": 2, "NAME": "Zheleznogorsk" }, "geometry": { "type": "Point", "coordinates": [ 35.404391640979611, 52.354774596254515 ] } },
{ "type": "Feature", "properties": { "SCALERANK": 7, "LABELRANK": 2, "NAME": "Gryazi" }, "geometry": { "type": "Point", "coordinates": [ 39.934347695685176, 52.494766051333158 ] } },
{ "type": "Feature", "properties": { "SCALERANK": 7, "LABELRANK": 2, "NAME": "Livny" }, "geometry": { "type": "Point", "coordinates": [ 37.604360716509348, 52.424796162009898 ] } },
{ "type": "Feature", "properties": { "SCALERANK": 7, "LABELRANK": 2, "NAME": "Mtsensk" }, "geometry": { "type": "Point", "coordinates": [ 36.547164264682181, 53.264744892482099 ] } },
{ "type": "Feature", "properties": { "SCALERANK": 7, "LABELRANK": 2, "NAME": "Salsk" }, "geometry": { "type": "Point", "coordinates": [ 41.542001504285452, 46.477510598835124 ] } },
{ "type": "Feature", "properties": { "SCALERANK": 7, "LABELRANK": 2, "NAME": "Belaya Kalitva" }, "geometry": { "type": "Point", "coordinates": [ 40.786130329152115, 48.186501891159764 ] } },
{ "type": "Feature", "properties": { "SCALERANK": 7, "LABELRANK": 2, "NAME": "Shakhty" }, "geometry": { "type": "Point", "coordinates": [ 40.270037799853242, 47.720380471886983 ] } },
{ "type": "Feature", "properties": { "SCALERANK": 7, "LABELRANK": 2, "NAME": "Millerovo" }, "geometry": { "type": "Point", "coordinates": [ 40.397420205452704, 48.937851378467485 ] } },
{ "type": "Feature", "properties": { "SCALERANK": 7, "LABELRANK": 2, "NAME": "Yefremov" }, "geometry": { "type": "Point", "coordinates": [ 38.121538450886419, 53.149118875229021 ] } },
{ "type": "Feature", "properties": { "SCALERANK": 7, "LABELRANK": 2, "NAME": "Frolovo" }, "geometry": { "type": "Point", "coordinates": [ 43.651795205465703, 49.77219321603593 ] } },
{ "type": "Feature", "properties": { "SCALERANK": 7, "LABELRANK": 2, "NAME": "Mikhaylovka" }, "geometry": { "type": "Point", "coordinates": [ 43.217454792052592, 50.067859923393883 ] } },
{ "type": "Feature", "properties": { "SCALERANK": 7, "LABELRANK": 2, "NAME": "Uryupinsk" }, "geometry": { "type": "Point", "coordinates": [ 42.003058633193575, 50.773449929906974 ] } },
{ "type": "Feature", "properties": { "SCALERANK": 7, "LABELRANK": 2, "NAME": "Starsy Oskol" }, "geometry": { "type": "Point", "coordinates": [ 37.839953571327896, 51.300420348203431 ] } },
{ "type": "Feature", "properties": { "SCALERANK": 7, "LABELRANK": 2, "NAME": "Alekseyevka" }, "geometry": { "type": "Point", "coordinates": [ 38.693079792034382, 50.653483092341503 ] } },
{ "type": "Feature", "properties": { "SCALERANK": 7, "LABELRANK": 2, "NAME": "Valuyki" }, "geometry": { "type": "Point", "coordinates": [ 38.098697467813281, 50.20909161284743 ] } },
{ "type": "Feature", "properties": { "SCALERANK": 7, "LABELRANK": 2, "NAME": "Tuapse" }, "geometry": { "type": "Point", "coordinates": [ 39.064374958051474, 44.114760761586183 ] } },
{ "type": "Feature", "properties": { "SCALERANK": 7, "LABELRANK": 2, "NAME": "Gelendzhik" }, "geometry": { "type": "Point", "coordinates": [ 38.064384316771566, 44.57475852363234 ] } },
{ "type": "Feature", "properties": { "SCALERANK": 7, "LABELRANK": 2, "NAME": "Labinsk" }, "geometry": { "type": "Point", "coordinates": [ 40.744272418995649, 44.634780699739224 ] } },
{ "type": "Feature", "properties": { "SCALERANK": 7, "LABELRANK": 2, "NAME": "Armavir" }, "geometry": { "type": "Point", "coordinates": [ 41.130036986054563, 45.000391458204206 ] } },
{ "type": "Feature", "properties": { "SCALERANK": 7, "LABELRANK": 2, "NAME": "Timashevsk" }, "geometry": { "type": "Point", "coordinates": [ 38.944382282269828, 45.624746113154742 ] } },
{ "type": "Feature", "properties": { "SCALERANK": 7, "LABELRANK": 2, "NAME": "Tikhoretsk" }, "geometry": { "type": "Point", "coordinates": [ 40.137746133186113, 45.853104267452522 ] } },
{ "type": "Feature", "properties": { "SCALERANK": 7, "LABELRANK": 2, "NAME": "Yeysk" }, "geometry": { "type": "Point", "coordinates": [ 38.263390257527419, 46.698789081909013 ] } },
{ "type": "Feature", "properties": { "SCALERANK": 7, "LABELRANK": 2, "NAME": "Kamenka" }, "geometry": { "type": "Point", "coordinates": [ 44.044381061587046, 53.19472332672666 ] } },
{ "type": "Feature", "properties": { "SCALERANK": 7, "LABELRANK": 2, "NAME": "Kotovsk" }, "geometry": { "type": "Point", "coordinates": [ 41.504381061577021, 52.594734109601859 ] } },
{ "type": "Feature", "properties": { "SCALERANK": 7, "LABELRANK": 2, "NAME": "Balashov" }, "geometry": { "type": "Point", "coordinates": [ 43.163091185281473, 51.553505675352881 ] } },
{ "type": "Feature", "properties": { "SCALERANK": 7, "LABELRANK": 6, "NAME": "Mazyr" }, "geometry": { "type": "Point", "coordinates": [ 29.272156126632183, 52.045956236878283 ] } },
{ "type": "Feature", "properties": { "SCALERANK": 6, "LABELRANK": 5, "NAME": "Zaporizhzhya" }, "geometry": { "type": "Point", "coordinates": [ 35.174862774553389, 47.859243037857368 ] } },
{ "type": "Feature", "properties": { "SCALERANK": 6, "LABELRANK": 2, "NAME": "Kursk" }, "geometry": { "type": "Point", "coordinates": [ 36.190028441112872, 51.73998008127819 ] } },
{ "type": "Feature", "properties": { "SCALERANK": 6, "LABELRANK": 2, "NAME": "Tambov" }, "geometry": { "type": "Point", "coordinates": [ 41.430018675508961, 52.730023009341949 ] } },
{ "type": "Feature", "properties": { "SCALERANK": 6, "LABELRANK": 5, "NAME": "Yalta" }, "geometry": { "type": "Point", "coordinates": [ 34.15940303420382, 44.499310932486139 ] } },
{ "type": "Feature", "properties": { "SCALERANK": 6, "LABELRANK": 5, "NAME": "Chernobyl" }, "geometry": { "type": "Point", "coordinates": [ 30.098875690437524, 51.38940716461002 ] } },
{ "type": "Feature", "properties": { "SCALERANK": 6, "LABELRANK": 5, "NAME": "Sumy" }, "geometry": { "type": "Point", "coordinates": [ 34.780863808945867, 50.924293435767026 ] } },
{ "type": "Feature", "properties": { "SCALERANK": 6, "LABELRANK": 5, "NAME": "Mariupol" }, "geometry": { "type": "Point", "coordinates": [ 37.556198281613263, 47.096180846233551 ] } },
{ "type": "Feature", "properties": { "SCALERANK": 6, "LABELRANK": 6, "NAME": "Homyel" }, "geometry": { "type": "Point", "coordinates": [ 31.000009316743274, 52.430015481671546 ] } },
{ "type": "Feature", "properties": { "SCALERANK": 6, "LABELRANK": 2, "NAME": "Lipetsk" }, "geometry": { "type": "Point", "coordinates": [ 39.639998737350709, 52.620003884992627 ] } },
{ "type": "Feature", "properties": { "SCALERANK": 6, "LABELRANK": 2, "NAME": "Orel" }, "geometry": { "type": "Point", "coordinates": [ 36.069984088898991, 52.969956684473118 ] } },
{ "type": "Feature", "properties": { "SCALERANK": 6, "LABELRANK": 2, "NAME": "Volgodonsk" }, "geometry": { "type": "Point", "coordinates": [ 42.159948281631671, 47.509979877810622 ] } },
{ "type": "Feature", "properties": { "SCALERANK": 6, "LABELRANK": 2, "NAME": "Belgorod" }, "geometry": { "type": "Point", "coordinates": [ 36.599925902052007, 50.629996153864909 ] } },
{ "type": "Feature", "properties": { "SCALERANK": 6, "LABELRANK": 2, "NAME": "Novorossiysk" }, "geometry": { "type": "Point", "coordinates": [ 37.769932005572514, 44.72996868802079 ] } },
{ "type": "Feature", "properties": { "SCALERANK": 4, "LABELRANK": 5, "NAME": "Odessa" }, "geometry": { "type": "Point", "coordinates": [ 30.708055320108315, 46.491962154062833 ] } },
{ "type": "Feature", "properties": { "SCALERANK": 4, "LABELRANK": 5, "NAME": "Dnipropetrovsk" }, "geometry": { "type": "Point", "coordinates": [ 34.998077699682767, 48.481918208758316 ] } },
{ "type": "Feature", "properties": { "SCALERANK": 4, "LABELRANK": 5, "NAME": "Donetsk" }, "geometry": { "type": "Point", "coordinates": [ 37.828034161282631, 48.001947505631392 ] } },
{ "type": "Feature", "properties": { "SCALERANK": 4, "LABELRANK": 5, "NAME": "Kharkiv" }, "geometry": { "type": "Point", "coordinates": [ 36.248078920390981, 50.001928788191321 ] } },
{ "type": "Feature", "properties": { "SCALERANK": 4, "LABELRANK": 2, "NAME": "Stavropol" }, "geometry": { "type": "Point", "coordinates": [ 41.980010944391324, 45.050000833204535 ] } },
{ "type": "Feature", "properties": { "SCALERANK": 4, "LABELRANK": 2, "NAME": "Bryansk" }, "geometry": { "type": "Point", "coordinates": [ 34.429980833683999, 53.259990660711139 ] } },
{ "type": "Feature", "properties": { "SCALERANK": 4, "LABELRANK": 2, "NAME": "Rostov" }, "geometry": { "type": "Point", "coordinates": [ 39.710709942540234, 47.236593705172595 ] } },
{ "type": "Feature", "properties": { "SCALERANK": 4, "LABELRANK": 2, "NAME": "Sochi" }, "geometry": { "type": "Point", "coordinates": [ 39.72996740597091, 43.590012429878243 ] } },
{ "type": "Feature", "properties": { "SCALERANK": 4, "LABELRANK": 2, "NAME": "Krasnodar" }, "geometry": { "type": "Point", "coordinates": [ 39.000037799848201, 45.019976826042807 ] } },
{ "type": "Feature", "properties": { "SCALERANK": 4, "LABELRANK": 2, "NAME": "Voronezh" }, "geometry": { "type": "Point", "coordinates": [ 39.268049623527986, 51.73192655024269 ] } },
{ "type": "Feature", "properties": { "SCALERANK": 3, "LABELRANK": 5, "NAME": "Sevastapol" }, "geometry": { "type": "Point", "coordinates": [ 33.464975137065608, 44.599976622590759 ] } },
{ "type": "Feature", "properties": { "SCALERANK": 1, "LABELRANK": 5, "NAME": "Kiev" }, "geometry": { "type": "Point", "coordinates": [ 30.514682110472165, 50.435313187607221 ] } }
]
}
